[{"name": "\u79be\u8c50\u7530\u98df \u7121\u5305\u88dd\u5546\u5e97 \u53f0\u4e2d\u7e3d\u5e97", "address": "\u53f0\u4e2d\u5e02\u897f\u5340\u6a21\u7bc4\u885740\u5df712\u865f", "lat": 24.1494155, "lon": 120.6654925, "tel": "0936 951 685", "bussiness_time": "\u9031\u4e94\u516d\u65e5\u4e00 14:00~20:00", "updtime": "201904", "id": 1, "imgs": ["https://drive.google.com/open?id=1ol2pnudJf1v8Ax3JA9Fo5Y_5_bmYAoIK", "https://drive.google.com/open?id=1ol2pnudJf1v8Ax3JA9Fo5Y_5_bmYAoIK", "https://drive.google.com/open?id=1yd5eXKpEdRRyf-o9INXzjmPGT8aLwdSJ", "https://drive.google.com/open?id=1HRrjUbX8Azgdt4ySk5jf9xPQ1k0-FBtT", "https://drive.google.com/open?id=1Z5X8HagnErmLfRptlRj-A8hXiN1cT4m6", "https://drive.google.com/open?id=1FgadXxXCu1fy4usiB-wMuCfl5ks1pvoP", "https://drive.google.com/open?id=16ll1-iRY0dZMAKwMUpgMjXy6G-G1-WYV", "https://drive.google.com/open?id=1ol2pnudJf1v8Ax3JA9Fo5Y_5_bmYAoIK"]}, {"name": "\u5a1c\u91ce\u852c\u9662 \u7121\u5305\u88dd\u5546\u5e97", "address": "\u53f0\u5357\u5e02\u5317\u5340\u958b\u5357\u8857275\u5df710\u5f0413\u865f1F", "lat": 23.0052126, "lon": 120.2272684, "tel": "0932 052 659", "bussiness_time": "\u9031\u56db~\u9031\u516d 11:00~20:00", "updtime": "201904", "id": 2, "imgs": ["https://drive.google.com/open?id=19ug8C9csiGp8GBcFuboUyuUpzV6z6eJO", "https://drive.google.com/open?id=1G8ezdqbgS568JtzcRfcJCyghtmWDHMqf", "https://drive.google.com/open?id=1pQErEciJka9yf8Y16C-QbumXiR67Mpkc", "https://drive.google.com/open?id=1XnxojeicL4tPtyVSS9J6u7SZMVIAeC42", "https://drive.google.com/open?id=1wC44caztnm3FrryfG7GGgnTzBY0Xfmax", "https://drive.google.com/open?id=1VX1AKVxKoUBlLPFDKSJLOoaK_WfEFC5B", "https://drive.google.com/open?id=1nVousPzDzHD7uccv-NmS3d1BmXcAVlYD", "https://drive.google.com/open?id=19ug8C9csiGp8GBcFuboUyuUpzV6z6eJO"]}, {"name": "\u5a01\u514b\u5144\u5f1f\u7d20\u98df\u65e9\u5348\u9910", "address": "\u57fa\u9686\u5e02\u5b89\u6a02\u5340\u5b89\u4e00\u8def318\u865f", "lat": 25.132629, "lon": 121.727944, "tel": "02 2427 8327", "bussiness_time": "07:00~15:30 \u661f\u671f\u4e09\u4f11\u606f", "updtime": "201904", "id": 3, "imgs": ["https://drive.google.com/open?id=1mnEHUDjb3fimwmI599i4fZJ5QXpU9VqF", "https://drive.google.com/open?id=1mnEHUDjb3fimwmI599i4fZJ5QXpU9VqF", "https://drive.google.com/open?id=1xbLh7Ft6kBI3hDDP28m2epcTj_q9kupd", "https://drive.google.com/open?id=1QU4ew0RhnIhRwW6waGqLhN_OmtsX4jXg", "https://drive.google.com/open?id=1_spj-3BD8p_OHdfO8Q8r7w1AW4sJSkV5", "https://drive.google.com/open?id=1W9pJ31vAz9Gn206_VXcsqyf3hHahQAQo", "https://drive.google.com/open?id=1T67LRGcGdZhkOXJTMV_YlISV_wWX7Tj-"]}, {"name": "\u611b\u7389\u51b0\u3001\u51ac\u74dc\u8336\u3001\u84ee\u85d5\u6c41", "address": "\u57fa\u9686\u5e02\u4ec1\u611b\u5340\u4ec1\u4e09\u8def45\u865f\u6524\u4f4d", "lat": 25.128691, "lon": 121.742388, "tel": "", "bussiness_time": "", "updtime": "201902", "id": 4, "imgs": []}, {"name": "\u6c88\u7238\u9eb5\u7dda", "address": "201\u57fa\u9686\u5e02\u4fe1\u7fa9\u5340\u4fe1\u4e8c\u8def170\u865f", "lat": 25.129418, "lon": 121.753949, "tel": "0986193608", "bussiness_time": "08:00\u201312:30 \u9031\u65e5\u516c\u4f11", "updtime": "201902", "id": 5, "imgs": ["https://drive.google.com/open?id=1oc6XMTPCyB4IcVl2xGme4vkrSPk5DIRk"]}, {"name": "\u6c60\u4e2d\u84ee\u8336\u85dd\u574a", "address": "200\u57fa\u9686\u5e02\u4ec1\u611b\u5340\u611b\u4e09\u8def87\u865f", "lat": 25.129362, "lon": 121.743097, "tel": "02 2423 9666", "bussiness_time": "", "updtime": "201902", "id": 6, "imgs": []}, {"name": "\u6148\u5584\u7de3\u7d20\u98df\u574a", "address": "202\u57fa\u9686\u5e02\u4e2d\u6b63\u5340\u7fa9\u4e8c\u8def166\u865f2\u6a13", "lat": 25.134037, "lon": 121.747469, "tel": "02 2427 7879", "bussiness_time": "", "updtime": "201902", "id": 7, "imgs": []}, {"name": "\u4f5b\u5149\u5c71\u6975\u6a02\u5bfa\u6ef4\u6c34\u574a", "address": "201\u57fa\u9686\u5e02\u4fe1\u7fa9\u5340\u4fe1\u4e8c\u8def270\u865f", "lat": 25.13067, "lon": 121.747294, "tel": "02 2423 1141", "bussiness_time": "", "updtime": "201902", "id": 8, "imgs": ["https://drive.google.com/open?id=1-kjmpOi7VIPXsND9oW-teRszkd4Qlxx0"]}, {"name": "\u4f5b\u7de3\u5c45\u6ef7\u5473\u9eb5\u7dda\u7cca", "address": "200\u57fa\u9686\u5e02\u4ec1\u611b\u5340\u4ec1\u56db\u8def12\u865f", "lat": 25.127822, "lon": 121.742761, "tel": "02 2424 0489", "bussiness_time": "\u9031\u4e00~\u516d 11:00~20:00", "updtime": "201902", "id": 9, "imgs": ["https://drive.google.com/open?id=1K5x6fwzv6DCn0a161DeuZ4fTVTpyclhl"]}, {"name": "\u4f5b\u7de3\u5c45\u7d20\u98df\u9eb5\u7dda\u7fb9", "address": "200\u57fa\u9686\u5e02\u4ec1\u611b\u5340\u5fe0\u4e00\u8def20\u865f", "lat": 25.131316, "lon": 121.73965, "tel": "", "bussiness_time": "", "updtime": "201902", "id": 10, "imgs": ["https://drive.google.com/open?id=1K5x6fwzv6DCn0a161DeuZ4fTVTpyclhl"]}, {"name": "\u4f5b\u7de3\u5c45\u7d20\u98df\u9eb5\u7dda\u7fb9(\u7e3d\u5e97)", "address": "\u57fa\u9686\u5e02\u7fa9\u4e8c\u8def161\u865f(\u7e3d\u5e97)", "lat": 25.134133, "lon": 121.747452, "tel": "0913002310,02 2424 0489\n", "bussiness_time": "\u9031\u4e00~\u516d 11:00~20:00", "updtime": "201902", "id": 11, "imgs": ["https://drive.google.com/open?id=1K5x6fwzv6DCn0a161DeuZ4fTVTpyclhl"]}, {"name": "\u4f5b\u7de3\u7d20\u98df\u5c0f\u5403\u6524", "address": "\u57fa\u9686\u5e02\u4ec1\u611b\u5340\u4ec1\u611b\u5e02\u58342\u6a13A\u68df5\u865f", "lat": 25.12818, "lon": 121.740862, "tel": "02-24228398", "bussiness_time": "", "updtime": "201902", "id": 12, "imgs": []}, {"name": "\u99a5\u53e3\u68e0\u7d20\u98df", "address": "200\u57fa\u9686\u5e02\u4ec1\u611b\u5340\u6210\u529f\u4e00\u8def88\u865fB1\u6a13", "lat": 25.127734, "lon": 121.737568, "tel": "02 2430 2268", "bussiness_time": "", "updtime": "201902", "id": 13, "imgs": []}, {"name": "\u89c0\u97f3\u4ead\u7d20\u98df", "address": "\u57fa\u9686\u5e02\u4ec1\u611b\u5340\u6e2f\u897f\u88577\u865f2\u6a13", "lat": 25.132653, "lon": 121.73976, "tel": "02-24223277", "bussiness_time": "11:00~14:00 17:00~19:00", "updtime": "201902", "id": 14, "imgs": []}, {"name": "\u597d\u5403\u8c46\u82b1", "address": "200\u57fa\u9686\u5e02\u4ec1\u611b\u5340\u611b\u4e8c\u8def1-10\u865f", "lat": 25.128224, "lon": 121.741447, "tel": "02 2426 1183", "bussiness_time": "09:00\u201318:00\n\u661f\u671f\u4e00\t\u4f11\u606f", "updtime": "201902", "id": 15, "imgs": []}, {"name": "\u597d\u5eb7\u7d20\u98df\u5357\u6d0b\u98a8\u5473", "address": "\u57fa\u9686\u5e02\u4ec1\u611b\u5340\u611b\u56db\u8def2-6\u865f(\u7e3d\u5e97)\n221\u65b0\u5317\u5e02\u6c50\u6b62\u5340\u5fe0\u5b5d\u6771\u8def398\u865f", "lat": 25.127659, "lon": 121.743215, "tel": "0911926615,02 8648 6012\n", "bussiness_time": "", "updtime": "201902", "id": 16, "imgs": []}, {"name": "\u82b1\u5abd\u7d20\u98df", "address": "\u57fa\u9686\u5e02\u4e2d\u6b63\u5340\u7fa9\u4e8c\u8def159\u865f1\u6a13", "lat": 25.13409, "lon": 121.747335, "tel": "02 2421 3966", "bussiness_time": "", "updtime": "201902", "id": 17, "imgs": []}, {"name": "\u9ec3\u5abd\u5abd\u990a\u751f\u7d20\u98df", "address": "200\u57fa\u9686\u5e02\u4ec1\u611b\u5340\u5289\u9298\u50b3\u8def11\u5df76\u865f", "lat": 25.12745, "lon": 121.751203, "tel": "02 2423 1629", "bussiness_time": "", "updtime": "201902", "id": 18, "imgs": ["https://drive.google.com/open?id=1TBgO88nqMy2K_KaMSaOmLJZk1e7NJrQV"]}, {"name": "\u57fa\u9686\u9023\u73cd\u7cd5\u9905\u5e97", "address": "200\u57fa\u9686\u5e02\u4ec1\u611b\u5340\u611b\u4e8c\u8def42\u865f", "lat": 25.128722, "lon": 121.742013, "tel": "02 2422 3676", "bussiness_time": "08:00\u201321:00", "updtime": "201902", "id": 19, "imgs": []}, {"name": "\u57fa\u9686\u5edf\u53e3\u91d1\u8208\u8534\u7ca9", "address": " 200\u57fa\u9686\u5e02\u4ec1\u611b\u5340\u4ec1\u4e09\u8def\u7b2c62\u865f\u6524\u4f4d", "lat": 25.128335, "lon": 121.743474, "tel": "02 2429 3592", "bussiness_time": "09:00\u201323:00", "updtime": "201902", "id": 20, "imgs": []}, {"name": "\u57fa\u9686\u4e09\u5144\u5f1f\u8c46\u82b1", "address": "200\u57fa\u9686\u5e02\u4ec1\u611b\u5340\u611b\u56db\u8def26\u865f", "lat": 25.128374, "lon": 121.743945, "tel": "02 2427 3911", "bussiness_time": "", "updtime": "201902", "id": 21, "imgs": ["https://drive.google.com/open?id=1GsKu6jDgL3NCGLDlpiUt7NNYaQIxVnvp"]}, {"name": "\u57fa\u9686\u591c\u5e02\u5730\u74dc\u7403", "address": "200 \u57fa\u9686\u5e02\u4ec1\u4e09\u8def40\u865f", "lat": 25.128265, "lon": 121.743736, "tel": "0982 288 237", "bussiness_time": "", "updtime": "201902", "id": 22, "imgs": []}, {"name": "\u6c5f\u59d0\u6599\u7406", "address": "200\u57fa\u9686\u5e02\u4ec1\u611b\u5340\u5b5d\u4e09\u8def59\u865f", "lat": 25.129891, "lon": 121.739009, "tel": " 02 2427 1567", "bussiness_time": "\u661f\u671f\u4e00        10:00\u201320:00\n\u661f\u671f\u65e5        \u4f11\u606f", "updtime": "201902", "id": 23, "imgs": []}, {"name": "\u91d1\u7389\u98df\u5802\u852c\u98df\u5275\u610f\u6599\u7406", "address": "202\u57fa\u9686\u5e02\u4e2d\u6b63\u5340\u4e2d\u6b63\u8def12-1\u865f", "lat": 25.132495, "lon": 121.744321, "tel": "02 2427 0071", "bussiness_time": "", "updtime": "201902", "id": 24, "imgs": ["https://drive.google.com/open?id=1-3nkVTaWuZRwrJvyS8IQUyrNAtwhg8U_", "https://drive.google.com/open?id=1-3nkVTaWuZRwrJvyS8IQUyrNAtwhg8U_", "https://drive.google.com/open?id=1tsrHMRp40WBusesTKjJ8NMudgNxAdJSh", "https://drive.google.com/open?id=1PFon_PjR3V_YiKRMe0d3U0LxjS8st5Ef", "https://drive.google.com/open?id=1m_i_U7LFBQs82E1oxqF-feSKfDbPUfNa", "https://drive.google.com/open?id=1rPeOaiGkvbLabw6WctTRtidBLRi66PGq", "https://drive.google.com/open?id=19wLoTgd06dCB2esp_EIgQiJv8KZozB8T", "https://drive.google.com/open?id=1tsrHMRp40WBusesTKjJ8NMudgNxAdJSh"]}, {"name": "\u4eac\u9924\u7cd5\u9ede", "address": "200\u57fa\u9686\u5e02\u4ec1\u611b\u5340\u4ec1\u56db\u8def48\u865f", "lat": 25.128324, "lon": 121.741418, "tel": "02 2422 1687", "bussiness_time": "07:00\u201322:15\n\u5efa\u8b70\u4fee\u6539", "updtime": "201902", "id": 25, "imgs": ["https://drive.google.com/open?id=1T0_pKQgHktYVypg5cJ8vQgXcyVPTlNR7"]}, {"name": "\u4e5d\u6d32\u8c46\u6f3f\u5e97", "address": "202\u57fa\u9686\u5e02\u4e2d\u6b63\u5340\u4fe1\u4e94\u8def20-22\u865f", "lat": 25.134213, "lon": 121.747384, "tel": "", "bussiness_time": "06:00\u201312:00", "updtime": "201902", "id": 26, "imgs": []}, {"name": "\u6a58\u852c\u990a\u751f\u6d77\u82d4\u98ef\u6372", "address": "100\u53f0\u5317\u5e02\u4e2d\u6b63\u5340\u4fe1\u7fa9\u8def\u4e8c\u6bb581\u865f \u672c\u9928-4\u865f", "lat": 25.034554, "lon": 121.526743, "tel": "0978 906 073", "bussiness_time": "", "updtime": "201908", "id": 27, "imgs": ["https://drive.google.com/open?id=1iq_GYgEZFjdhtgURhOfCSwmYA944sOug"]}, {"name": "\u6797\u5bb6\u7d20\u98df\u9eb5\u7599\u7629", "address": "206\u57fa\u9686\u5e02\u4e03\u5835\u5340\u81ea\u6cbb\u885724\u865f", "lat": 25.096419, "lon": 121.712824, "tel": "0930 224 190", "bussiness_time": "", "updtime": "201902", "id": 28, "imgs": []}, {"name": "\u9f8d\u8a18\u5065\u5eb7\u7d20\u98df\u624b\u5de5\u9eb5\u7599\u7629", "address": "200\u57fa\u9686\u5e02\u4ec1\u611b\u5340\u4ec1\u4e8c\u8def159\u865f", "lat": 25.128223, "lon": 121.74562, "tel": "02 2422 2076", "bussiness_time": "\u661f\u671f\u4e00~\u516d 09:00\u201319:30\n\u661f\u671f\u65e5 09:00\u201315:00", "updtime": "201902", "id": 29, "imgs": []}, {"name": "\u7da0\u81ea\u7136\u6709\u6a5f\u63a8\u5ee3\u4e2d\u5fc3", "address": "200\u57fa\u9686\u5e02\u4ec1\u611b\u5340\u4ec1\u56db\u8def8\u865f", "lat": 25.127885, "lon": 121.74284, "tel": "02 2424 1119", "bussiness_time": "09:30\u201321:30\n\u661f\u671f\u65e5        \u4f11\u606f", "updtime": "201902", "id": 30, "imgs": []}, {"name": "\u5abd\u7956\u5edf\u53e3\u7d20\u98df", "address": "\u57fa\u9686\u5e02\u4ec1\u611b\u5340\u5fe0\u4e00\u8def3\u5df723\u865f (\u570b\u969b\u767e\u8ca8\u5f8c\u65b9\u3001\u6176\u5b89\u5bae\u5abd\u7956\u5edf\u5c0d\u9762\u5c0f\u5df7\u5b50\u5167)", "lat": 25.130003, "lon": 121.741016, "tel": "(02)-2429-2940", "bussiness_time": "", "updtime": "201902", "id": 31, "imgs": []}, {"name": "\u7f8e\u9cf3\u7d20\u98df", "address": "\u57fa\u9686\u5e02\u4ec1\u611b\u5340\u4ec1\u611b\u5e02\u58342\u6a13B\u68df41", "lat": 25.127597, "lon": 121.742024, "tel": "02-24236668", "bussiness_time": "", "updtime": "201902", "id": 32, "imgs": []}, {"name": "\u54c1\u8fb0\u7d20\u98df\u574a", "address": "200\u57fa\u9686\u5e02\u4ec1\u611b\u5340\u5b5d\u4e09\u8def60\u865f", "lat": 25.130271, "lon": 121.739528, "tel": "02 2427 0626", "bussiness_time": "", "updtime": "201902", "id": 33, "imgs": ["https://drive.google.com/open?id=1qZXvP7G-p8FvvP5Jjb0ErFNlbbtb2qVX"]}, {"name": "\u54c1\u8ed2\u7d20\u98df", "address": "200\u57fa\u9686\u5e02\u4ec1\u611b\u5340\u4e09 \u8857 29 \u88573\u865f41 \u865f", "lat": 25.126138, "lon": 121.736978, "tel": "02 2434 6711", "bussiness_time": "\t06:00\u201317:00", "updtime": "201902", "id": 34, "imgs": ["https://drive.google.com/open?id=1B_EaqYpIB1jt6VtGdQSkRybSqRGVYr2w"]}, {"name": "\u4e03\u5835\u7d20\u98df\u4e32\u70e4", "address": "\u57fa\u9686\u5e02\u4ec1\u611b\u5340\u7cbe\u4e00\u8def21\u865f", "lat": 25.126349, "lon": 121.741375, "tel": "", "bussiness_time": "", "updtime": "201902", "id": 35, "imgs": ["https://drive.google.com/open?id=1DAm4jaReTq8pil2cJPrVKhH6dom3QG8a", "https://drive.google.com/open?id=1DAm4jaReTq8pil2cJPrVKhH6dom3QG8a", "https://drive.google.com/open?id=1vscdWLU8qKPNJl0xUXQZfWD7DqoseydU", "https://drive.google.com/open?id=1ONFJsJRIj60Q69WHvXIpNergeAUxYBWx", "\u5171\u7528\u96a8\u6a5f", "\u5171\u7528\u96a8\u6a5f", "\u767d\u5e95"]}, {"name": "\u6cc9\u5229\u7c73\u9999", "address": "201\u57fa\u9686\u5e02\u4fe1\u7fa9\u5340\u4fe1\u4e8c\u8def219\u865f", "lat": 25.12973, "lon": 121.749084, "tel": "02 2423 1698", "bussiness_time": "09:00\u201322:00", "updtime": "201902", "id": 36, "imgs": []}, {"name": "\u7fa4\u8ce2\u95a3\u852c\u98df\u7cbe\u7dfb\u6599\u7406", "address": "202\u57fa\u9686\u5e02\u4fe1\u7fa9\u5340\u58fd\u5c71\u8def21-1\u865f2\u6a13", "lat": 25.134036, "lon": 121.752691, "tel": "02 2426 8333", "bussiness_time": "", "updtime": "201902", "id": 37, "imgs": []}, {"name": "\u4eba\u4ec1\u7d20\u98df\u9eb5\u9928", "address": "202\u57fa\u9686\u5e02\u4e2d\u6b63\u5340\u65b0\u8c50\u8857217\u865f", "lat": 25.13714, "lon": 121.788512, "tel": "02 2469 1819", "bussiness_time": "10:00\u201320:30\n\u661f\u671f\u516d\t\u4f11\u606f", "updtime": "201902", "id": 38, "imgs": []}, {"name": "\u4e09\u516d\u4e5d\u5305\u5b50\u9945\u982d", "address": "201\u57fa\u9686\u5e02\u4fe1\u7fa9\u5340\u4fe1\u4e8c\u8def258\u865f", "lat": 25.129767, "lon": 121.750067, "tel": "02 2428 3019", "bussiness_time": "", "updtime": "201902", "id": 39, "imgs": []}, {"name": "\u5584\u7de3\u852c\u98df\u6ef7\u5473", "address": "\u57fa\u9686\u5e02\u4ec1\u56db\u8def2\u865f\u9a0e\u6a13\uff08\u5728\u57fa\u9686\u7684\u9752\u8349\u8857~\u9760\u8fd1\u57fa\u9686\u5edf\u53e3\u9644\u8fd1\uff09", "lat": 25.127733, "lon": 121.743019, "tel": "0989-544-347", "bussiness_time": "11:30~20:30 \u9031\u65e5\u4f11\u606f", "updtime": "201902", "id": 40, "imgs": []}, {"name": "\u6df1\u8015\u5712\u7d20\u98df\u9910\u5ef3", "address": "202\u57fa\u9686\u5e02\u4e2d\u6b63\u5340\u7fa9\u4e8c\u8def61\u865f1\u6a13", "lat": 25.131839, "lon": 121.745875, "tel": "02 2423 6629", "bussiness_time": "", "updtime": "201902", "id": 41, "imgs": []}, {"name": "\u56db\u6d77\u4e00\u5bb6 \u7d20\u98df\u714e\u9903", "address": "\u865f, No. 1-2\u611b\u4e8c\u8def\u4ec1\u611b\u5340\u57fa\u9686\u5e02200", "lat": 25.12765, "lon": 121.741092, "tel": "02-24293779", "bussiness_time": "06:00~14:00", "updtime": "201902", "id": 42, "imgs": []}, {"name": "\u7d20\u6148\u5065\u5eb7\u7d20\u98df\u81ea\u52a9\u9910", "address": "200\u57fa\u9686\u5e02\u4ec1\u611b\u5340\u5b5d\u4e09\u8def78\u865f\n\u57fa\u9686\u5e02\u4ec1\u611b\u5340\u5fe0\u56db\u8def31\u865f\u6a4b\u4e0b\u660e\u5fb7\u6524\u8ca9\u5546\u5834", "lat": 25.130667, "lon": 121.739998, "tel": "02 2427 8086", "bussiness_time": "", "updtime": "201902", "id": 43, "imgs": ["https://drive.google.com/open?id=1-4ib-3K7pnXwt470go-6KjdPiEpolHCb"]}, {"name": "\u7d20\u98df\u516b\u5bf6\u51ac\u7c89", "address": "200\u57fa\u9686\u5e02\u4ec1\u611b\u5340\u611b\u56db\u8def7\u865f\u524d", "lat": 25.128511, "lon": 121.743564, "tel": "0972 798 657", "bussiness_time": "", "updtime": "201902", "id": 44, "imgs": []}, {"name": "\u7d20\u98df\u6c34\u714e\u5305", "address": "\u57fa\u9686\u5e02\u4e2d\u6b63\u5340\u5317\u5be7\u8def\u8abf\u548c\u8857\u53e3\uff08\u516b\u6597\u5b50\uff09", "lat": 25.139426, "lon": 121.796157, "tel": "", "bussiness_time": "", "updtime": "201902", "id": 45, "imgs": []}, {"name": "\u7d20\u5fc3\u9f4b", "address": "204\u57fa\u9686\u5e02\u5b89\u6a02\u5340\u5b89\u6a02\u8def\u4e8c\u6bb5139\u865f", "lat": 25.121494, "lon": 121.724398, "tel": "02 2431 8346", "bussiness_time": "", "updtime": "201902", "id": 46, "imgs": []}, {"name": "\u96a8\u7de3\u7d20\u98df", "address": "\u57fa\u9686\u5e02\u7fa9\u4e8c\u8def(\u57fa\u9686\u5e02\u7acb\u91ab\u9662\u9580\u8a3a\u4e2d\u5fc3\u5c0d\u9762)", "lat": 25.130609, "lon": 121.745522, "tel": "02 2423 0661", "bussiness_time": "7:00-19:00", "updtime": "201902", "id": 47, "imgs": []}, {"name": "\u9676\u6797\u8c46\u6f3f\u6b61\u559c\u7d20\u98df", "address": "202\u57fa\u9686\u5e02\u4e2d\u6b63\u5340\u7fa9\u4e8c\u8def166\u865f", "lat": 25.13404, "lon": 121.747471, "tel": "02 2425 3344", "bussiness_time": "", "updtime": "201902", "id": 48, "imgs": []}, {"name": "\u5929\u4e0a\u7d20\u9858", "address": "200\u57fa\u9686\u5e02\u4ec1\u611b\u5340\u611b\u4e09\u8def65\u865f", "lat": 25.128931, "lon": 121.742769, "tel": "02 2420 1580", "bussiness_time": "", "updtime": "201902", "id": 49, "imgs": []}, {"name": "\u4e94\u5473\u81ed\u81ed\u934b \u6771\u4fe1\u5e97", "address": "201\u57fa\u9686\u5e02\u4fe1\u7fa9\u5340\u6771\u4fe1\u8def158-1\u865f", "lat": 25.128164, "lon": 121.764993, "tel": "02 2468 3438", "bussiness_time": "\u661f\u671f\u4e00 16:30~21:00\n\u661f\u671f\u4e8c~\u65e5 11:00~21:00", "updtime": "201902", "id": 51, "imgs": []}, {"name": "\u559c\u6a02\u852c\u98df\u5275\u610f\u6599\u7406", "address": "202\u57fa\u9686\u5e02\u4e2d\u6b63\u5340\u4e2d\u6b63\u8def12-1\u865f", "lat": 25.132519, "lon": 121.744353, "tel": "02 2427 0071", "bussiness_time": "11:00\u201314:00, 17:00\u201321:00\n\u661f\u671f\u4e8c\t\u4f11\u606f", "updtime": "201902", "id": 52, "imgs": []}, {"name": "\u559c\u6085\u5065\u5eb7\u5eda\u623f", "address": "204\u57fa\u9686\u5e02\u5b89\u6a02\u5340\u57fa\u91d1\u4e09\u8def82\u865f", "lat": 25.157072, "lon": 121.695714, "tel": "02 2432 9999", "bussiness_time": "", "updtime": "201902", "id": 53, "imgs": []}, {"name": "\u9109\u91ce\u5065\u5eb7\u7d20\u98df\u9928", "address": "202\u57fa\u9686\u5e02\u4e2d\u6b63\u5340\u7fa9\u4e00\u8def56\u865f", "lat": 25.132953, "lon": 121.745779, "tel": "02 2429 1938", "bussiness_time": "", "updtime": "201902", "id": 54, "imgs": []}, {"name": "\u5e78\u798f10\u865f\u5e97", "address": "\u57fa\u9686\u5e02\u4fe1\u7fa9\u5340\u4fe1\u4e00\u8def141\u5df710\u865f", "lat": 25.129654, "lon": 121.747449, "tel": "02 2422 5988", "bussiness_time": "", "updtime": "201902", "id": 55, "imgs": ["https://drive.google.com/open?id=1qdUxq5sa8DE5XbcGqkZsfRMs0jAusL-Z", "https://drive.google.com/open?id=1qdUxq5sa8DE5XbcGqkZsfRMs0jAusL-Z", "https://drive.google.com/open?id=1k6rmNrXTx-1MLbBPJlnL_HMAUQQG7wWO", "https://drive.google.com/open?id=11yCBqm7TXTWZefARgyUofTKVrSQ-U6IV", "https://drive.google.com/open?id=1Vo7a195Dr8vRBIjpYNDJkCWmMWyIyWA-", "https://drive.google.com/open?id=1VK4Y1WsM9N8pitJdKZlrq8ZOjvPzSJqP", "https://drive.google.com/open?id=1AseyE0rjYr6gv9b6PzkxS8zF0uUQPqWC"]}, {"name": "\u512a\u5409\u7d20\u98df\u70d8\u7119", "address": "201\u57fa\u9686\u5e02\u4fe1\u4e00\u8def62\u865f", "lat": 25.128521, "lon": 121.752897, "tel": "\n02 2426 9403", "bussiness_time": "\u4e0a\u534810:00 - \u4e0b\u534810:00", "updtime": "201904", "id": 56, "imgs": ["https://drive.google.com/open?id=19W1wLSFc9Fd-4JKovDp8q3ff6B-lPVNK"]}, {"name": "\u7de3\u5712\u7d20\u98df\u81ea\u52a9\u9910", "address": "201\u57fa\u9686\u5e02\u4fe1\u7fa9\u5340\u4fe1\u4e8c\u8def275\u865f", "lat": 25.130282, "lon": 121.747253, "tel": "02 2428 9155", "bussiness_time": "", "updtime": "201902", "id": 57, "imgs": ["https://drive.google.com/open?id=1wtpddYyTfp7rJLAS7-J4666Mjl8FCR9O"]}, {"name": "\u8a79\u5bb6\u7d20\u98df", "address": "200\u57fa\u9686\u5e02\u4ec1\u611b\u5340\u4ec1\u56db\u8def20\u865f", "lat": 25.127716, "lon": 121.742615, "tel": "02 2426 7159", "bussiness_time": "", "updtime": "201902", "id": 58, "imgs": []}, {"name": "\u6e2c\u8a662\u865f\u5e97-\u63a8\u85a6", "address": "\u53f0\u4e2d\u5e02\u897f\u5340\u6a21\u7bc4\u885740\u5df712\u865f", "lat": 24.149495, "lon": 120.667747, "tel": "0936 951 685,02 2222-2222,02 2222-2223\u5433", "bussiness_time": "\u661f\u671f\u4e94\u516d\u65e5\u4e00 14:00\u201320:00", "updtime": "201904", "id": 59, "imgs": ["https://drive.google.com/file/d/11Yaom-iZ1gMMt1UvbJWiCi7dZ-BmWGyc/view", "https://drive.google.com/file/d/11Yaom-iZ1gMMt1UvbJWiCi7dZ-BmWGyc/view", "https://drive.google.com/open?id=18xjfCKHRoU33cTsylyJ48sSkmHfi_apJ", "https://drive.google.com/open?id=1Mg0FxkH4KBmKjFhHlq3bECKxgCi9tRQN", "https://drive.google.com/open?id=1IUIo_mv-vXVZXFkfYxWgfGLLVeuGsVDV", "http://www.ruifangfoodcourt.com.tw/img/9/1.jpg", "https://scontent.ftpe8-4.fna.fbcdn.net/v/t1.0-0/p370x247/38703274_2210299285852330_4242230006752739328_n.jpg?_nc_cat=102&_nc_ht=scontent.ftpe8-4.fna&oh=419807f9e4d979ad9df112ade29fa383&oe=5D73F1B6"]}, {"name": "\u6148\u7994\u7d20\u98df", "address": "224\u65b0\u5317\u5e02\u745e\u82b3\u5340\u6c11\u751f\u885735\u5df72\u865f9\u865f\u6524", "lat": 25.107035, "lon": 121.806247, "tel": "0928 066 007", "bussiness_time": "", "updtime": "201902", "id": 60, "imgs": ["https://drive.google.com/open?id=1eDH2NG7B0W2Oz5yM2wxRA-clIHXAikKh"]}, {"name": "\u8001\u987d\u7ae5\u7d20\u98df", "address": "224\u65b0\u5317\u5e02\u745e\u82b3\u5340\u660e\u91cc\u8def102\u865f", "lat": 25.119591, "lon": 121.861477, "tel": "0980 489 000,0988 868 150\n\n", "bussiness_time": "", "updtime": "201902", "id": 61, "imgs": ["https://drive.google.com/open?id=1CedyJEaPlwJ2uOVYvXXerm8peZhNGOHf"]}, {"name": "\u7530\u5712\u9910\u574a (\u7d20\u98df)", "address": "224\u65b0\u5317\u5e02\u745e\u82b3\u5340\u6c11\u65cf\u88574\u865f", "lat": 25.107483, "lon": 121.806905, "tel": "02 2497 7971", "bussiness_time": "", "updtime": "201902", "id": 62, "imgs": []}, {"name": "BOSS\u5496\u5561\u5eda\u623f", "address": "224\u65b0\u5317\u5e02\u745e\u82b3\u5340\u5efa\u57fa\u8def\u4e8c\u6bb5117\u865f", "lat": 25.134133, "lon": 121.805323, "tel": "02 2497 7057", "bussiness_time": "12:00~22:00", "updtime": "201902", "id": 63, "imgs": ["https://drive.google.com/open?id=1dQ5fgLqcjk6bMjth8bgjOFYOO0s2tQiC"]}, {"name": "\u5c0f\u5c0f\u852c\u623f", "address": "\u53f0\u5317\u5e02\u842c\u83ef\u5340\u6f22\u53e3\u8857\u4e8c\u6bb5125\u865f", "lat": 25.046487, "lon": 121.503986, "tel": "02-2311-1168", "bussiness_time": "", "updtime": "", "id": 64, "imgs": ["https://drive.google.com/open?id=1vpPNAjT2swUum3RX_z4uSLnc6hOXhkKg", "https://drive.google.com/open?id=1vpPNAjT2swUum3RX_z4uSLnc6hOXhkKg", "https://drive.google.com/open?id=1hk50fl53wIl2raqZUsaFiia3BfMeBTVo", "https://drive.google.com/open?id=1civiOL2d1aUwDblSxn0CgTRVKeyhxVat", "https://drive.google.com/open?id=1_lUOKMkOKH6x4tPdGX-jpZc3lsoaZlpN", "https://drive.google.com/open?id=1eN42kPFRiBsg3UpBSFoN7cvJsXdNB2sI", "https://drive.google.com/open?id=1RQEGzg3pQ9dIg3VhNqSIseQ1xd95FU1h", "https://drive.google.com/open?id=1vpPNAjT2swUum3RX_z4uSLnc6hOXhkKg"]}, {"name": "\u6728\u8449\u7c97\u98df Mottainai Plant-Based Whole Food Caf\u00e9", "address": "\u9ad8\u96c4\u5e02\u9f13\u5c71\u5340\u9f13\u5357\u885730\u865f", "lat": 22.620686, "lon": 120.271911, "tel": "(07)531-8007", "bussiness_time": "", "updtime": "", "id": 65, "imgs": ["https://drive.google.com/open?id=1WmhEi3fz2PaGILShkCOUPb6TDrZz5kM9", "https://drive.google.com/open?id=1WmhEi3fz2PaGILShkCOUPb6TDrZz5kM9", "https://drive.google.com/open?id=1xp_r9yaBo7Q4kdjQsuufFyRiYZFlBAoj", "https://drive.google.com/open?id=1_77KwryYjXu0yZabbEaMkD0yWvWA7xCN", "https://drive.google.com/open?id=12xH50KSdgRDEmQ6k22OcCP1yT15kfKOS", "https://drive.google.com/open?id=1eD5w_hO8fhF8JyVcMqM6uVnN77yn4Gzc", "https://drive.google.com/open?id=1moFfuYwDoX1fU7EU8Xi-Xi7M2LYnIFkb", "https://drive.google.com/open?id=1WmhEi3fz2PaGILShkCOUPb6TDrZz5kM9"]}, {"name": "\u5927\u6a39\u4e0b\u5065\u5eb7\u9910\u98f2\u5e97", "address": "100\u53f0\u7063\u53f0\u5317\u5e02\u4e2d\u6b63\u5340\u4e09\u5143\u885769\u865f", "lat": 25.029501, "lon": 121.509206, "tel": "02-2309-4364", "bussiness_time": "", "updtime": "201904", "id": 66, "imgs": ["https://drive.google.com/open?id=1poW1M1DvFsYWMZsTJuVpb6F7CE1emaBs", "https://drive.google.com/open?id=1IZRP6jIMHYGnNANHT90FhDfvDge_cqxe", "https://drive.google.com/open?id=1MUftnkv_pRYU5l9-SEjo-MvB2-Gn1bAU", "https://drive.google.com/open?id=1w5avzHW_TCO7HXJBCekJ0hRSe3ufDDdJ", "https://drive.google.com/open?id=13IXIJOEp2GMfLdGE-4hAOZA_3Zuo9tC8", "https://drive.google.com/open?id=1UjT_3A4tHBhdFeibzUcvlfvMENHTL8Kg", "https://drive.google.com/open?id=1poW1M1DvFsYWMZsTJuVpb6F7CE1emaBs", "https://drive.google.com/open?id=1poW1M1DvFsYWMZsTJuVpb6F7CE1emaBs"]}, {"name": "\u597d\u5e02\u96c6-Le Bon Marche", "address": "\u9ad8\u96c4\u5e02\u9f13\u5c71\u5340\u9f13\u5c71\u4e00\u8def19\u865f\u4e4b1", "lat": 22.620881, "lon": 120.27452, "tel": "(07)532-6899", "bussiness_time": "", "updtime": "", "id": 67, "imgs": ["https://drive.google.com/open?id=17HvnDkpC007WF_-vY_1o0FbgJaOSwtlT", "https://drive.google.com/open?id=17HvnDkpC007WF_-vY_1o0FbgJaOSwtlT", "https://drive.google.com/open?id=1c7zBXuqFWAMN6eAGZN6ln-Rgt1lJckNI", "https://drive.google.com/open?id=1PkqtEBj3_XgU3V68tSFG-Wz9a2avM68_", "https://drive.google.com/open?id=1jNwDRMwUuN-rbJD0hjiC-sVdjZKsuYIc", "https://drive.google.com/open?id=1qoOTTCNHujlaXlaaX3Pp45JwouCim1cR", "https://drive.google.com/open?id=1-BEiDSj5UWePbrq0HVXn1tp427P8Zo0G", "https://drive.google.com/open?id=1c7zBXuqFWAMN6eAGZN6ln-Rgt1lJckNI"]}, {"name": "\u5477\u7c73\u852c\u98df / \u7d20\u98df\u9910\u5ef3 Rice revolution vegetarian restaurant", "address": "\u53f0\u5317\u5e02\u4e2d\u6b63\u5340\u8861\u967d\u8def9\u865f", "lat": 25.042422, "lon": 121.513688, "tel": "(02)2331-9662", "bussiness_time": "", "updtime": "", "id": 68, "imgs": ["https://drive.google.com/open?id=13myHRM1430HEu5xRkmCQcd-mtrVfAMT-", "https://drive.google.com/open?id=13myHRM1430HEu5xRkmCQcd-mtrVfAMT-", "https://drive.google.com/open?id=1xUl2rHIoC-fqRCYaGBE7LSUQiWzZW-4U", "https://drive.google.com/open?id=1YWvvSQ74T5cWWkVHfO0cOUGTG7T2aHWc", "https://drive.google.com/open?id=18rcQ0HHEpPJVpm924ucnOjT-KmdnJhpx", "https://drive.google.com/open?id=1dU0Sq1FC5yFoY-5zBnkkREeTmXyhQFF9", "https://drive.google.com/open?id=1gqprJ01xjCQQVcRUFD_RG6airxTtt7HX", "https://drive.google.com/open?id=13myHRM1430HEu5xRkmCQcd-mtrVfAMT-"]}, {"name": "\u539f\u7cb9\u852c\u98df\u4f5c Original Vegan", "address": "\u65b0\u5317\u5e02\u65b0\u5e97\u5340\u5bf6\u5b89\u885758\u5df72\u865f", "lat": 24.983834, "lon": 121.541808, "tel": "(02)8914-7185", "bussiness_time": "", "updtime": "", "id": 69, "imgs": ["https://drive.google.com/open?id=1vJeQuNQO20LLgfqp5Mo6cw25vl5dTa6E", "https://drive.google.com/open?id=1vJeQuNQO20LLgfqp5Mo6cw25vl5dTa6E", "https://drive.google.com/open?id=1Ic61RwT0-EPxzlOOdEkk3tOLP7tIO3ne", "https://drive.google.com/open?id=1Jx9TXt1jocxSgDAqwfQcMKk7XjlZ67PQ", "https://drive.google.com/open?id=1TVWAnOECglnWvoEP-vu8vMs2Lv6J87Eg", "https://drive.google.com/open?id=1cXXFEiviShuROOZTTi-PxcYCwYdcEYUf", "https://drive.google.com/open?id=1icoN9h2d1NQnfe6gXdk32iSaCnOIYQNR", "https://drive.google.com/open?id=1Jx9TXt1jocxSgDAqwfQcMKk7XjlZ67PQ"]}, {"name": "\u8a31\u613f", "address": "\u53f0\u4e2d\u5e02\u9727\u5cf0\u5340\u5751\u53e3\u91cc\u6c11\u65cf\u8def2\u865f", "lat": 24.04325, "lon": 120.695171, "tel": "0937-262-448", "bussiness_time": "", "updtime": "", "id": 70, "imgs": ["https://drive.google.com/open?id=10ESdYX0Nqtc1gesQK1I91Pojaha9Gv7X", "https://drive.google.com/open?id=10ESdYX0Nqtc1gesQK1I91Pojaha9Gv7X", "https://drive.google.com/open?id=1cv3VgN56SzK2FVpLQURk5Nc3zHk5E13X", "https://drive.google.com/open?id=1w4KTZwsbWLdaeh7g5rIKKZfOBYrQBlkv", "https://drive.google.com/open?id=1u8so-lHdKM57lZZMXQYEZKYY7ES5fGl8", "https://drive.google.com/open?id=1LJZa4gH1_aYJkIdrcpdjqljmqGOw8WuD", "https://drive.google.com/open?id=1swME5px6_vKRr4uiS83UMOXLK2-VcmBX", "https://drive.google.com/open?id=1cv3VgN56SzK2FVpLQURk5Nc3zHk5E13X"]}, {"name": "\u88f8\u5f97\u597d", "address": "\u53f0\u5317\u5e02\u5927\u5b89\u5340\u6566\u5316\u5357\u8def\u4e8c\u6bb5172\u5df75\u5f042\u865f1\u6a13", "lat": 25.024078, "lon": 121.547728, "tel": "0909-003-060", "bussiness_time": "", "updtime": "", "id": 71, "imgs": ["https://drive.google.com/open?id=1ILC6wewEqxLF2CBkLp9Q7AgsJ24jzWQ5", "https://drive.google.com/open?id=1ILC6wewEqxLF2CBkLp9Q7AgsJ24jzWQ5", "https://drive.google.com/open?id=1dqhpao0cQhybsfs5SnaMZzS1hY-L42jr", "https://drive.google.com/open?id=1pkKviIwvmv2qnRH-9osioe_iqVW30lYU", "https://drive.google.com/open?id=1M90rf08OsQdHlfH-8CttnzAN4gtg6yxn", "https://drive.google.com/open?id=1c6eCMuPzT_EPMNoN5nbNYaiAGFwzHsIA", "https://drive.google.com/open?id=1ZKKcZbWiK2NwJHdFzotJTCXQuJRKt_d2", "https://drive.google.com/open?id=1BUmt2AgCvPc70PINh0pvQKLZ20y0ZH3Z"]}, {"name": "\u852c\u6a02 \u8f15\u98df\u6599\u7406\u5eda\u623f", "address": "\u53f0\u4e2d\u5e02\u5317\u5c6f\u5340\u65c5\u9806\u8def\u4e8c\u6bb587\u865f", "lat": 24.174352, "lon": 120.688403, "tel": "(04)2245-0668", "bussiness_time": "", "updtime": "", "id": 72, "imgs": ["https://drive.google.com/open?id=1ooGGRvDPoJy9TxMgeILaQPXiYJTkOO6F", "https://drive.google.com/open?id=1ooGGRvDPoJy9TxMgeILaQPXiYJTkOO6F", "https://drive.google.com/open?id=1oMALvtf56zmiwC4So_nqBo4QEy_a5eWu", "https://drive.google.com/open?id=1HVcwwqLipfMgHsWSMhjAp1DDrfD6PlKE", "https://drive.google.com/open?id=1dn8zolxNwPoOLV0re47o0zdz_gqnCGjp", "https://drive.google.com/open?id=1nqJJYGZZM0qUpQFCx8N8ydMWoThB918R", "https://drive.google.com/open?id=1IPga_UNd-PDwZjddHmKkWu2FzhMbU7Nd", "https://drive.google.com/open?id=1oMALvtf56zmiwC4So_nqBo4QEy_a5eWu"]}, {"name": "\u99a8\u7aa9\u826f\u884cHomelanie\u9ce5\u677e\u5e97", "address": "\u9ad8\u96c4\u5e02\u9ce5\u677e\u5340\u7af9\u5b89\u885767\u865f", "lat": 22.647126, "lon": 120.364778, "tel": "(07)733-5967", "bussiness_time": "", "updtime": "", "id": 73, "imgs": ["https://drive.google.com/open?id=1bloD7cFRwU3IycCxMRsoDH4rd4B4EKvb", "https://drive.google.com/open?id=1tI6XXp-Ry9cWmUf58n8_gJcIqxiH3mUi", "https://drive.google.com/open?id=1iJHGWc70wFIlGprj8eYMovY6sk9EIFMM", "https://drive.google.com/open?id=11SWcYBbVt5KJCj5bbC2gQNhv0_vNaRGc", "https://drive.google.com/open?id=1WTa1oMOexGTPM555ZIhBdMipCFPNcEUf", "https://drive.google.com/open?id=1rV0ujf8h9SvuEpd5zIREsKGrDgoUS6Ex", "https://drive.google.com/open?id=1Hc2YImoRVFf2lIuvtZTnkJ7nJyQzHV1A", "https://drive.google.com/open?id=1iJHGWc70wFIlGprj8eYMovY6sk9EIFMM"]}, {"name": "\u66ec\u592a\u967d\u6d0b\u98df\u5c0f\u9928", "address": "\u53f0\u5317\u5e02\u4e2d\u5c71\u5317\u8def\u4e8c\u6bb596\u5df715\u865f", "lat": 25.0599, "lon": 121.52202, "tel": "(02)2523-0350", "bussiness_time": "", "updtime": "", "id": 74, "imgs": ["https://drive.google.com/open?id=1N97ZEBqNhdFnHeTve2oee9lPkrezeBvu", "https://drive.google.com/open?id=1JwY3Jls94MKVbCMh9l79QK9LCcdT7t7W", "https://drive.google.com/open?id=1oqteU7vLLL8ewcsLD5XUBdio_fliQjto", "https://drive.google.com/open?id=1MZMwCjsFV-pYsUB8gq1L7CD24-JZPJxR", "https://drive.google.com/open?id=1N97ZEBqNhdFnHeTve2oee9lPkrezeBvu", "https://drive.google.com/open?id=1KX11trY0A6ycQy3qtHDubIUYhVJOXXjK", "https://drive.google.com/open?id=1qwxN2NZTL2aLUNU9GsJTyShGcfxYYV7v", "https://drive.google.com/open?id=1oqteU7vLLL8ewcsLD5XUBdio_fliQjto"]}, {"name": "Plants", "address": "\u53f0\u5317\u5e02\u5927\u5b89\u5340\u5fa9\u8208\u5357\u8def\u4e00\u6bb5253\u5df710\u865f", "lat": 25.036728, "lon": 121.544257, "tel": "(02)2784-5677", "bussiness_time": "", "updtime": "", "id": 75, "imgs": ["https://drive.google.com/open?id=1Gwggz5kfG-hgl41Y_ZpXI5s29d_mEgjy", "https://drive.google.com/open?id=1Gwggz5kfG-hgl41Y_ZpXI5s29d_mEgjy", "https://drive.google.com/open?id=1AKVQ4Br2OjAWN_HjI84PSJiqDr_tJbzQ", "https://drive.google.com/open?id=1kV23783XHnR2y46tX5EkPr15aMFH_yME", "https://drive.google.com/open?id=1xgA8BPXdOg4cGNS0e_slIzhIXuhqNLTn", "https://drive.google.com/open?id=1-rAC3uPM8HJ5ZHh2QJoKBQafxeamiL39", "https://drive.google.com/open?id=1OKMv-GuDVjU20_mUp52CsoT1EbMnR-QI", "https://drive.google.com/open?id=1AKVQ4Br2OjAWN_HjI84PSJiqDr_tJbzQ"]}, {"name": "BetterMan Pizza x Coffee", "address": "800\u9ad8\u96c4\u5e02\u65b0\u8208\u5340\u6c11\u751f\u4e00\u8def265\u865f", "lat": 22.627172, "lon": 120.30725, "tel": "07 282 8255", "bussiness_time": "", "updtime": "", "id": 76, "imgs": ["https://drive.google.com/open?id=1dUQlu7cIyAclw2SjKah249SImW6qz7Mr", "https://drive.google.com/open?id=1dUQlu7cIyAclw2SjKah249SImW6qz7Mr", "https://drive.google.com/open?id=1bqI5s9xuMaDRs8ak4FDaBT7TtTFfxloy", "https://drive.google.com/open?id=1dYlrFYjBI6-K9OBvs4-nkYn8UcibGyXq", "https://drive.google.com/open?id=1MZvgTUC1OPaWBUXcoVeITis_Shug8t8-", "https://drive.google.com/open?id=1P__2_X9BOmv0vFZn1AcSPnnicJuZMFQw", "https://drive.google.com/open?id=1iR3fPrD_qErZglR7fGoyySz1iYEoYv0g", "https://drive.google.com/open?id=1dYlrFYjBI6-K9OBvs4-nkYn8UcibGyXq"]}]